[{"name":"Andreina kuhinja","typeRestaurant":"ITALIAN","status":"OPEN","location":{"longitude":"12.11","latitude":"122","street":"Dunavska","houseNumber":"121bb","city":"Novi Sad","postalCode":"21000"},"articles":[],"imageRestaurant":"../images/podrazumevani-logo-restorana.jpg","rating":4.5},{"name":"Andreina kuhinja 2","typeRestaurant":"ITALIAN","status":"OPEN","location":{"longitude":"12.11","latitude":"122","street":"Marinikova","houseNumber":"1111","city":"Kikina","postalCode":"122"},"articles":[],"imageRestaurant":"../images/podrazumevani-logo-restorana.jpg","rating":2.1},{"name":"Andreina kuhinja 2","typeRestaurant":"CHINESE","status":"OPEN","location":{"longitude":"12.11","latitude":"122","street":"Main street","houseNumber":"121bb","city":"Los Angeles","postalCode":"21000"},"articles":[],"rating":3.7},{"name":"Andrea","typeRestaurant":"CHINESE","status":"OPEN","location":{"longitude":"q","latitude":"q","street":"q","houseNumber":"q","postalCode":"q"},"articles":[],"imageRestaurant":"","rating":-1.0},{"name":"Jumbo food","typeRestaurant":"BARBECUE","status":"OPEN","location":{"longitude":"aaa","latitude":"qw","street":"qw","houseNumber":"ee","postalCode":"3"},"articles":[],"imageRestaurant":"","rating":-1.0},{"name":"McDonalds","typeRestaurant":"ITALIAN","status":"OPEN","location":{"longitude":"123","latitude":"111","street":"Main street","houseNumber":"123","postalCode":"11000"},"articles":[],"imageRestaurant":"","rating":-1.0},{"name":"Najbolji restoran","typeRestaurant":"BARBECUE","status":"OPEN","location":{"longitude":"1122","latitude":"1122","street":"1122","houseNumber":"11","postalCode":"11"},"articles":[],"imageRestaurant":"","rating":-1.0},{"name":"chinese food","typeRestaurant":"ITALIAN","status":"OPEN","location":{"longitude":"112","latitude":"112","street":"Rumenacka","houseNumber":"12","city":"Novi Sad","postalCode":"21000"},"articles":[],"imageRestaurant":"","rating":-1.0},{"name":"Rostilj","typeRestaurant":"BARBECUE","status":"OPEN","location":{"longitude":"123","latitude":"123","street":"de","houseNumber":"ee","city":"Cikago","postalCode":"4r"},"articles":[],"imageRestaurant":"","rating":-1.0},{"name":"chinese food2","typeRestaurant":"CHINESE","status":"OPEN","location":{"longitude":"12","latitude":"12","street":"Rumenacka","houseNumber":"12","city":"Novi Sad","postalCode":"21000"},"articles":[],"imageRestaurant":"","rating":-1.0},{"name":"chinese food4","typeRestaurant":"ITALIAN","status":"OPEN","location":{"longitude":"aaa","latitude":"12","street":"Rumenacka","houseNumber":"12","city":"Novi Sad","postalCode":"21000"},"articles":[],"imageRestaurant":"","rating":-1.0},{"name":"Wendy shop","typeRestaurant":"ITALIAN","status":"OPEN","location":{"longitude":"123","latitude":"123","street":"Rumenacka","houseNumber":"12","city":"Novi Sad","postalCode":"21000"},"articles":[],"imageRestaurant":"","rating":-1.0},{"name":"q","typeRestaurant":"ITALIAN","status":"OPEN","location":{"longitude":"q","latitude":"q","street":"q","houseNumber":"q","city":"q","postalCode":"q"},"articles":[],"imageRestaurant":"","rating":-1.0},{"name":"ww","typeRestaurant":"ITALIAN","status":"OPEN","location":{"longitude":"ww","latitude":"ww","street":"ww","houseNumber":"ww","city":"ww","postalCode":"ww"},"articles":[],"imageRestaurant":"","rating":-1.0},{"name":"Mashas","typeRestaurant":"BARBECUE","status":"OPEN","location":{"longitude":"aaa","latitude":"12","street":"Rumenacka","houseNumber":"12","city":"Novi Sad","postalCode":"21000"},"articles":[],"imageRestaurant":"","rating":-1.0},{"name":"chinesww","typeRestaurant":"ITALIAN","status":"OPEN","location":{"longitude":"12","latitude":"12","street":"Rumenacka","houseNumber":"12","city":"Novi Sad","postalCode":"21000"},"articles":[],"rating":-1.0},{"name":"chineswwr","typeRestaurant":"ITALIAN","status":"OPEN","location":{"longitude":"aaa","latitude":"12","street":"Rumenacka","houseNumber":"12","city":"Novi Sad","postalCode":"21000"},"articles":[],"imageRestaurant":"Images/chineswwr.png","rating":0.0},{"name":"Novi restoran","typeRestaurant":"BARBECUE","status":"OPEN","location":{"longitude":"12","latitude":"12","street":"Rumenacka","houseNumber":"12","city":"Novi Sad","postalCode":"21000"},"articles":[{"nameArtical":"hamburger","price":13.0,"type":"DISH","restaurant":"Novi restoran","quantity":12.0,"description":"sd","image":"Images/Novi restoran+hamburger.png"},{"nameArtical":"kebab","price":499.0,"type":"DISH","restaurant":"Novi restoran","quantity":10.0,"description":"So tasty","image":"Images/Novi restoran+kebab.png"},{"nameArtical":"Gyros 2","price":350.0,"type":"DISH","restaurant":"Novi restoran","quantity":-1.0,"description":""}],"imageRestaurant":"Images/Novi restoran.png","rating":0.0}]
